{
"type": "FeatureCollection",
"crs": { "type": "name", "properties": { "name": "urn:ogc:def:crs:OGC:1.3:CRS84" } },
"features": [
{ "type": "Feature", "properties": { "Id": 0, "SciName": "Populus tremuloides", "Desciption": "Group of quaking aspen.", "InterpID": "T-1" }, "geometry": { "type": "Point", "coordinates": [ -73.999519229836466, 40.654427545055775 ] } },
{ "type": "Feature", "properties": { "Id": 0, "SciName": "Sassafras albidium", "Desciption": "Oldest tree", "InterpID": "T-2" }, "geometry": { "type": "Point", "coordinates": [ -73.99598121268896, 40.651800837658115 ] } },
{ "type": "Feature", "properties": { "Id": 0, "SciName": "Diospyros virginiana", "Desciption": "common persimmon", "InterpID": "T-3" }, "geometry": { "type": "Point", "coordinates": [ -73.993363177055855, 40.653493960951366 ] } },
{ "type": "Feature", "properties": { "Id": 0, "SciName": "Diospyros virginiana", "Desciption": "common persimmon", "InterpID": "T-3" }, "geometry": { "type": "Point", "coordinates": [ -73.993309179095164, 40.653380323285582 ] } },
{ "type": "Feature", "properties": { "Id": 0, "SciName": "Diospyros virginiana", "Desciption": "common persimmon", "InterpID": "T-3" }, "geometry": { "type": "Point", "coordinates": [ -73.993104764271621, 40.653462494845627 ] } },
{ "type": "Feature", "properties": { "Id": 0, "SciName": "Diospyros virginiana", "Desciption": "common persimmon", "InterpID": "T-3" }, "geometry": { "type": "Point", "coordinates": [ -73.993069039751575, 40.653525336206847 ] } },
{ "type": "Feature", "properties": { "Id": 0, "SciName": "Catanea dentata", "Desciption": "American chestnut", "InterpID": "T-4" }, "geometry": { "type": "Point", "coordinates": [ -73.993116701066839, 40.655845302922359 ] } },
{ "type": "Feature", "properties": { "Id": 0, "SciName": "Castanea dentata", "Desciption": "American chestnut", "InterpID": "T-4" }, "geometry": { "type": "Point", "coordinates": [ -73.993191124942143, 40.655642074438013 ] } },
{ "type": "Feature", "properties": { "Id": 0, "SciName": "Castanea dentata", "Desciption": "American chestnut", "InterpID": "T-4" }, "geometry": { "type": "Point", "coordinates": [ -73.993415790162189, 40.655735149402446 ] } },
{ "type": "Feature", "properties": { "Id": 0, "SciName": "Rhododendron catawbiense", "Desciption": "rhododendron ie. catawba rosebay", "InterpID": "T-5" }, "geometry": { "type": "Point", "coordinates": [ -73.990252449070894, 40.655001163580273 ] } },
{ "type": "Feature", "properties": { "Id": 0, "SciName": "Ulmus americana", "Desciption": "American elm", "InterpID": "T-7" }, "geometry": { "type": "Point", "coordinates": [ -73.990346595552722, 40.654607067550089 ] } },
{ "type": "Feature", "properties": { "Id": 0, "SciName": "Metasequoia glyptostroboides", "Desciption": "dawn redwood", "InterpID": "T-9" }, "geometry": { "type": "Point", "coordinates": [ -73.990755363071941, 40.6543727654104 ] } },
{ "type": "Feature", "properties": { "Id": 0, "SciName": "Gymnocladus dioicus", "Desciption": "stump garden", "InterpID": "T-6" }, "geometry": { "type": "Point", "coordinates": [ -73.990848574581975, 40.654850922540902 ] } },
{ "type": "Feature", "properties": { "Id": 0, "SciName": "Fagus sylvatica", "Desciption": "beech monument", "InterpID": "T-10" }, "geometry": { "type": "Point", "coordinates": [ -73.988526554741938, 40.656384762723512 ] } },
{ "type": "Feature", "properties": { "Id": 0, "SciName": "Prunus yedoensis", "Desciption": "cherry path", "InterpID": "T-11" }, "geometry": { "type": "Point", "coordinates": [ -73.989741046004539, 40.65686570043809 ] } },
{ "type": "Feature", "properties": { "Id": 0, "SciName": "Prunus yedoensis", "Desciption": "cherry path", "InterpID": "T-11" }, "geometry": { "type": "Point", "coordinates": [ -73.989633758122707, 40.65680465680564 ] } },
{ "type": "Feature", "properties": { "Id": 0, "SciName": "Prunus yedoensis", "Desciption": "cherry path", "InterpID": "T-11" }, "geometry": { "type": "Point", "coordinates": [ -73.989783256884508, 40.656785562091592 ] } },
{ "type": "Feature", "properties": { "Id": 0, "SciName": "Prunus yedoensis", "Desciption": "cherry path", "InterpID": "T-11" }, "geometry": { "type": "Point", "coordinates": [ -73.989631075344263, 40.656700882439559 ] } },
{ "type": "Feature", "properties": { "Id": 0, "SciName": "Prunus yedoensis", "Desciption": "cherry path", "InterpID": "T-11" }, "geometry": { "type": "Point", "coordinates": [ -73.989537198127209, 40.656647977602837 ] } },
{ "type": "Feature", "properties": { "Id": 0, "SciName": "Carya ovata", "Desciption": "shagbark hickory", "InterpID": "T-12" }, "geometry": { "type": "Point", "coordinates": [ -73.990405694766807, 40.649443740158539 ] } },
{ "type": "Feature", "properties": { "Id": 0, "SciName": "Magnolia acuminata", "Desciption": "cucumber magnolia", "InterpID": "T-13" }, "geometry": { "type": "Point", "coordinates": [ -73.986264434673359, 40.650689836881021 ] } },
{ "type": "Feature", "properties": { "Id": 0, "SciName": "Ginko biloba", "Desciption": "Phoenix ginko", "InterpID": "T-14" }, "geometry": { "type": "Point", "coordinates": [ -73.988022960859794, 40.652118983358896 ] } },
{ "type": "Feature", "properties": { "Id": 0, "SciName": "Fagus sylvatica 'Pendula'", "Desciption": "weeping beech", "InterpID": "T-15" }, "geometry": { "type": "Point", "coordinates": [ -73.988662717245461, 40.653247487723782 ] } },
{ "type": "Feature", "properties": { "Id": 0, "SciName": "Fagus sylvatica 'Pendula'", "Desciption": "weeping beech", "InterpID": "T-15" }, "geometry": { "type": "Point", "coordinates": [ -73.98859641433269, 40.653242742634212 ] } },
{ "type": "Feature", "properties": { "Id": 0, "SciName": "Fagus sylvatica 'Pendula'", "Desciption": "weeping beech", "InterpID": "T-15" }, "geometry": { "type": "Point", "coordinates": [ -73.988541892357276, 40.653194540359522 ] } },
{ "type": "Feature", "properties": { "Id": 0, "SciName": "Fagus sylvatica 'Pendula'", "Desciption": "weeping beech", "InterpID": "T-15" }, "geometry": { "type": "Point", "coordinates": [ -73.988353794380814, 40.65327672001245 ] } },
{ "type": "Feature", "properties": { "Id": 0, "SciName": "Fagus sylvatica 'Pendula'", "Desciption": "weeping beech", "InterpID": "T-15" }, "geometry": { "type": "Point", "coordinates": [ -73.988394393256854, 40.653153182125607 ] } },
{ "type": "Feature", "properties": { "Id": 0, "SciName": "Fagus sylvatica 'Pendula'", "Desciption": "weeping beech", "InterpID": "T-15" }, "geometry": { "type": "Point", "coordinates": [ -73.988680726782604, 40.653318604042241 ] } },
{ "type": "Feature", "properties": { "Id": 0, "SciName": "Cedrus atlantica", "Desciption": "atlas cedar", "InterpID": "T-16" }, "geometry": { "type": "Point", "coordinates": [ -73.989609792336822, 40.649878822816909 ] } },
{ "type": "Feature", "properties": { "Id": 0, "SciName": "Taxus baccata", "Desciption": "giant yew", "InterpID": "T-17" }, "geometry": { "type": "Point", "coordinates": [ -73.986127485992995, 40.65002316205203 ] } },
{ "type": "Feature", "properties": { "Id": 0, "SciName": "Taxus baccata", "Desciption": "giant yew", "InterpID": "T-17" }, "geometry": { "type": "Point", "coordinates": [ -73.986161367863971, 40.650057437556271 ] } },
{ "type": "Feature", "properties": { "Id": 0, "SciName": "Franklinia alatamaha", "Desciption": "Franklin Tree", "InterpID": "T-8" }, "geometry": { "type": "Point", "coordinates": [ -73.989489385120109, 40.648607575211592 ] } }
]
}
